[
    {
        "name": "Auburn, WA",
        "latitude": 47.3073,
        "longitude": -122.2285
    },
    {
        "name": "Auburn, WA, USA",
        "latitude": 47.3073,
        "longitude": -122.2285
    },
    {
        "name": "Bellevue, WA United States",
        "latitude": 47.6101,
        "longitude": -122.2015
    },
    {
        "name": "Bellevue, WA",
        "latitude": 47.6101,
        "longitude": -122.2015
    },
    {
        "name": "Bellingham, WA, USA",
        "latitude": 48.7519,
        "longitude": -122.4787
    },
    {
        "name": "Bothell, WA",
        "latitude": 47.7601,
        "longitude": -122.2054
    },
    {
        "name": "Bothell,WA,USA",
        "latitude": 47.7601,
        "longitude": -122.2054
    },
    {
        "name": "Burbank, CA, USA",
        "latitude": 34.1808,
        "longitude": -118.3090
    },
    {
        "name": "Claymont, DE, USA", "latitude":  39.801696, "longitude": -75.465319
    },
    {
        "name": "Dallas, TX", "latitude": 32.775568, "longitude": -96.795595
    },
    {
        "name": "Edmonds, WA, USA", "latitude": 47.811242, "longitude":  -122.376842
    },
    {
        "name": "Edmonds, WA", "latitude": 47.811242, "longitude":  -122.376842
    },
    {
        "name": "Everett, WA, USA",
        "latitude": 47.9790,
        "longitude": -122.2021
    },
    {
        "name": "Gig Harbor, Washington",
        "latitude": 47.3293,
        "longitude": -122.5801
    },
    {
        "name": "Irvine, CA",
        "latitude": 33.6846,
        "longitude": -117.8265
    },
    {
        "name": "Issaquah, WA",
        "latitude": 47.5301,
        "longitude": -122.0329
    },
    {
        "name": "Kent, WA",
        "latitude": 47.3831,
        "longitude": -122.2348
    },
    {
        "name": "Killeen, TX but will be moving back to Tacoma, WA after my contract is up",
        "latitude":  31.121182,
        "longitude":  -97.732589
    },
    {
        "name": "Kirkland, WA",
        "latitude": 47.6769,
        "longitude": -122.2060
    },
    {
        "name": "Lawrence, Kansas", "latitude":  38.967530, "longitude": -95.238272
    },
    {
        "name": "Lynnwood, WA", "latitude":  47.826349,"longitude": -122.292430
    },
    {
        "name": "Mission Viejo, California, USA",
        "latitude": 33.5969,
        "longitude": -117.6582
    },
    {
        "name": "Montreal, Canada",
        "latitude": 45.5019,
        "longitude": -73.5674
    },
    {
        "name": "Mountain View, CA",
        "latitude": 37.3861,
        "longitude": -122.0839
    },
    {
        "name": "Nairobi Kenya", "latitude": -1.283030, "longitude":36.817231
    },
    {
        "name": "New York City, NY, USA or Bethesda, Maryland, USA",
        "latitude": 40.6643,
        "longitude": -73.9385
    },
    {
        "name": "Puyallup, WA",
        "latitude": 47.1854,
        "longitude": -122.2929
    },
    {
        "name": "Redmond, WA, USA",
        "latitude": 47.6740,
        "longitude": -122.1215
    },
    {
        "name": "Redmond, Washington",
        "latitude": 47.6740,
        "longitude": -122.1215
    },
    {
        "name": "San Francisco, CA, US",
        "latitude": 37.7749,
        "longitude": -122.4194
    },
    {
        "name": "San Francisco, CA, USA",
        "latitude": 37.7749,
        "longitude": -122.4194
    },
    {
        "name": "Seattle",
        "latitude": 47.6205,
        "longitude": -122.3509
    },
    {
        "name": "Seattle, WA",
        "latitude": 47.6205,
        "longitude": -122.3509
    },
    {
        "name": "Seattle, WA, USA",
        "latitude": 47.6205,
        "longitude": -122.3509
    },
    {
        "name": "Seattle, Washington USA",
        "latitude": 47.6205,
        "longitude": -122.3509
    },
    {
        "name": "Seattle, Washington",
        "latitude": 47.6205,
        "longitude": -122.3509
    },
    {
     "name": "Shoreline, Washington", "latitude":  47.756360, "longitude":  -122.344330
    },
    {
        "name": "Toronto, Ontario, Canada",
        "latitude": 43.651605,
        "longitude": -79.383125
    },
    {
        "name": "Washington, DC",
        "latitude": 38.9072,
        "longitude": -77.0369
    }
]